{
"type": "FeatureCollection",
"name": "KeralaWaterfalls",
"crs": { "type": "name", "properties": { "name": "urn:ogc:def:crs:OGC:1.3:CRS84" } },
"features": [
{ "type": "Feature", "properties": { "Name": "Adyanpara Waterfalls", "District": "Malappuram" }, "geometry": { "type": "Point", "coordinates": [ 76.2034065, 11.3549267, 149.362365113828105 ] } },
{ "type": "Feature", "properties": { "Name": "Aruvikkuzhi Waterfalls", "District": "Kottyam" }, "geometry": { "type": "Point", "coordinates": [ 76.666988, 9.6035014, 78.587051870063149 ] } },
{ "type": "Feature", "properties": { "Name": " Vazhachal Waterfalls", "District": "Thrissur" }, "geometry": { "type": "Point", "coordinates": [ 76.592596724560309, 10.301391710943291, 203.175089264444608 ] } },
{ "type": "Feature", "properties": { "Name": "Athirappalli Waterfalls", "District": "Thrissur" }, "geometry": { "type": "Point", "coordinates": [ 76.56949959220465, 10.284909327289499, 122.137991060742706 ] } },
{ "type": "Feature", "properties": { "Name": "Attukad waterfalls", "District": "Munnar" }, "geometry": { "type": "Point", "coordinates": [ 77.058835100315449, 10.053438324949211, 1147.377519253625906 ] } },
{ "type": "Feature", "properties": { "Name": "Cheeyappara waterfalls", "District": "Idukki" }, "geometry": { "type": "Point", "coordinates": [ 76.82929310442583, 10.053478707468219, 398.204569446225719 ] } },
{ "type": "Feature", "properties": { "Name": "Valara waterfalls", "District": "Idukki" }, "geometry": { "type": "Point", "coordinates": [ 76.838635840673902, 10.04613047224557, 470.368630975286294 ] } },
{ "type": "Feature", "properties": { "Name": "Kanthanpara Waterfalls", "District": "Wayanad" }, "geometry": { "type": "Point", "coordinates": [ 76.152685745942492, 11.523933895603751, 761.35501293277639 ] } },
{ "type": "Feature", "properties": { "Name": "Kalakkayam waterfalls", "District": "Thiruvanandapuram" }, "geometry": { "type": "Point", "coordinates": [ 77.080927419138462, 8.767398770634626, 157.385880070060693 ] } },
{ "type": "Feature", "properties": { "Name": "Keezharkuth waterfalls", "District": "Idukki" }, "geometry": { "type": "Point", "coordinates": [ 76.882034740099513, 9.908571327704806, 406.857913666290813 ] } },
{ "type": "Feature", "properties": { "Name": "Madammakkulam waterfalls", "District": "Idukki" }, "geometry": { "type": "Point", "coordinates": [ 76.928480444640812, 9.615408753204907, 996.826060967148692 ] } }
]
}
